[
    {
        "coords": {
          "lat": "55.75583",
          "lon": "37.61778"
        },
        "district": "Центральный",
        "name": "Москва",
        "population": 12655050,
        "subject": "Москва"
      },
      {
        "coords": {
          "lat": "59.95",
          "lon": "30.31667"
        },
        "district": "Северо-Западный",
        "name": "Санкт-Петербург",
        "population": 5384342,
        "subject": "Санкт-Петербург"
      },
      {
        "coords": {
          "lat": "53.51667",
          "lon": "49.41667"
        },
        "district": "Приволжский",
        "name": "Тольятти",
        "population": 719484,
        "subject": "Самарская область"
      },
      {
        "coords": {
          "lat": "44.0499664",
          "lon": "43.0600548"
        },
        "district": "Северо-Кавказский",
        "name": "Пятигорск",
        "population": 142397,
        "subject": "Ставропольский край"
      },
      {
        "coords": {
          "lat": "43.11667",
          "lon": "131.9"
        },
        "district": "Дальневосточный",
        "name": "Владивосток",
        "population": 592069,
        "subject": "Приморский край"
      },
      {
        "coords": {
          "lat": "55.09389",
          "lon": "38.76806"
        },
        "district": "Центральный",
        "name": "Коломна",
        "population": 144642,
        "subject": "Московская область"
      },
      {
        "coords": {
          "lat": "56.11667",
          "lon": "47.23333"
        },
        "district": "Приволжский",
        "name": "Чебоксары",
        "population": 447929,
        "subject": "Чувашия"
      },
      {
        "coords": {
          "lat": "55.79083",
          "lon": "49.11444"
        },
        "district": "Приволжский",
        "name": "Казань",
        "population": 1257341,
        "subject": "Татарстан"
      },
      {
        "coords": {
          "lat": "43.58528",
          "lon": "39.72028"
        },
        "district": "Южный",
        "name": "Сочи",
        "population": 343285,
        "subject": "Краснодарский край"
      },  
      {
        "coords": {
          "lat": "47.23917",
          "lon": "38.88333"
        },
        "district": "Южный",
        "name": "Таганрог",
        "population": 257692,
        "subject": "Ростовская область"
      }


]